{
"type": "FeatureCollection",
"name": "t10_centroids",
"features": [
{ "type": "Feature", "properties": { "code": 1.0, "name": "Grenoble", "area_sqm": 18240236.805038974, "area_sqkm": 18.240236805038975 }, "geometry": { "type": "Point", "coordinates": [ 5.720945733195096, 45.182627490411775 ] } },
{ "type": "Feature", "properties": { "code": 2.0, "name": "Reste Agglo", "area_sqm": 288713298.40201181, "area_sqkm": 288.71329840201179 }, "geometry": { "type": "Point", "coordinates": [ 5.682396570613789, 45.145721788123417 ] } },
{ "type": "Feature", "properties": { "code": 3.0, "name": "Bivre - Valloire", "area_sqm": 878602897.1919055, "area_sqkm": 878.60289719190553 }, "geometry": { "type": "Point", "coordinates": [ 5.229924864230049, 45.364745590790328 ] } },
{ "type": "Feature", "properties": { "code": 4.0, "name": "Grsivaudan", "area_sqm": 752075800.45205724, "area_sqkm": 752.07580045205725 }, "geometry": { "type": "Point", "coordinates": [ 5.978492241074327, 45.29925975661579 ] } },
{ "type": "Feature", "properties": { "code": 5.0, "name": "Sud Grenoblois", "area_sqm": 106436567.02198738, "area_sqkm": 106.43656702198737 }, "geometry": { "type": "Point", "coordinates": [ 5.778383333568156, 45.09294534870633 ] } },
{ "type": "Feature", "properties": { "code": 6.0, "name": "Voironnais", "area_sqm": 390687842.27056193, "area_sqkm": 390.68784227056193 }, "geometry": { "type": "Point", "coordinates": [ 5.587316079832605, 45.38626393498766 ] } },
{ "type": "Feature", "properties": { "code": 7.0, "name": "Sud Grsivaudan", "area_sqm": 589457098.38553393, "area_sqkm": 589.45709838553398 }, "geometry": { "type": "Point", "coordinates": [ 5.368379874413707, 45.167822906621261 ] } },
{ "type": "Feature", "properties": { "code": 8.0, "name": "Vercors", "area_sqm": 255232279.28039971, "area_sqkm": 255.23227928039972 }, "geometry": { "type": "Point", "coordinates": [ 5.55655564403164, 45.110483926132055 ] } },
{ "type": "Feature", "properties": { "code": 9.0, "name": "Matheysine", "area_sqm": 748832815.58181357, "area_sqkm": 748.83281558181352 }, "geometry": { "type": "Point", "coordinates": [ 5.897836449002794, 44.918503606979208 ] } },
{ "type": "Feature", "properties": { "code": 10.0, "name": "Trives", "area_sqm": 644968325.2568773, "area_sqkm": 644.96832525687728 }, "geometry": { "type": "Point", "coordinates": [ 5.650269719910252, 44.846591970765552 ] } },
{ "type": "Feature", "properties": { "code": 11.0, "name": "Oisans", "area_sqm": 834348738.5371089, "area_sqkm": 834.34873853710894 }, "geometry": { "type": "Point", "coordinates": [ 6.120937488463525, 45.042642314689296 ] } },
{ "type": "Feature", "properties": { "code": 12.0, "name": "Chartreuse", "area_sqm": 294300156.54035115, "area_sqkm": 294.30015654035117 }, "geometry": { "type": "Point", "coordinates": [ 5.765502298165709, 45.351829800302767 ] } }
]
}
