{
"type": "FeatureCollection",
"name": "t90_centroids",
"features": [
{ "type": "Feature", "properties": { "name": "Centre ville", "code": 101.0, "sqm": 10887.0, "sqkm": 1.09 }, "geometry": { "type": "Point", "coordinates": [ 5.72875816888468, 45.195529407407328 ] } },
{ "type": "Feature", "properties": { "name": "Esplanade Championnet", "code": 102.0, "sqm": 15439.0, "sqkm": 1.54 }, "geometry": { "type": "Point", "coordinates": [ 5.720090994355635, 45.191942333520672 ] } },
{ "type": "Feature", "properties": { "name": "Administrations Albert 1er", "code": 103.0, "sqm": 81215.0, "sqkm": 0.81 }, "geometry": { "type": "Point", "coordinates": [ 5.7322854716543, 45.18660968101743 ] } },
{ "type": "Feature", "properties": { "name": "Boulevards", "code": 104.0, "sqm": 43283.0, "sqkm": 0.43 }, "geometry": { "type": "Point", "coordinates": [ 5.716138148094741, 45.180529693903608 ] } },
{ "type": "Feature", "properties": { "name": "Berriat Sud", "code": 105.0, "sqm": 98729.0, "sqkm": 0.99 }, "geometry": { "type": "Point", "coordinates": [ 5.708804174734566, 45.184534154337975 ] } },
{ "type": "Feature", "properties": { "name": "Berriat Nord tir", "code": 106.0, "sqm": 32311.0, "sqkm": 3.23 }, "geometry": { "type": "Point", "coordinates": [ 5.701705686828904, 45.200575682538307 ] } },
{ "type": "Feature", "properties": { "name": "Ile Verte", "code": 107.0, "sqm": 77496.0, "sqkm": 0.77 }, "geometry": { "type": "Point", "coordinates": [ 5.738097883050179, 45.19663078907756 ] } },
{ "type": "Feature", "properties": { "name": "Bajatire", "code": 108.0, "sqm": 11377.0, "sqkm": 1.14 }, "geometry": { "type": "Point", "coordinates": [ 5.740379593934961, 45.18361061417702 ] } },
{ "type": "Feature", "properties": { "name": "Teissre Chatelet Abbaye Jouhaux", "code": 109.0, "sqm": 12822.0, "sqkm": 1.28 }, "geometry": { "type": "Point", "coordinates": [ 5.7456513528876, 45.174804409144485 ] } },
{ "type": "Feature", "properties": { "name": "Malherbe Capuche", "code": 110.0, "sqm": 13101.0, "sqkm": 1.31 }, "geometry": { "type": "Point", "coordinates": [ 5.73251928280012, 45.174251559165924 ] } },
{ "type": "Feature", "properties": { "name": "Villeneuve de Grenoble", "code": 111.0, "sqm": 72827.0, "sqkm": 0.73 }, "geometry": { "type": "Point", "coordinates": [ 5.734216167183425, 45.163525844511327 ] } },
{ "type": "Feature", "properties": { "name": "Reynis-Bayard Village Olympique", "code": 112.0, "sqm": 23280.0, "sqkm": 2.33 }, "geometry": { "type": "Point", "coordinates": [ 5.721672268160301, 45.167524651875432 ] } },
{ "type": "Feature", "properties": { "name": "Eaux Claires", "code": 113.0, "sqm": 24055.0, "sqkm": 2.41 }, "geometry": { "type": "Point", "coordinates": [ 5.708248719198536, 45.169979752181796 ] } },
{ "type": "Feature", "properties": { "name": "Mistral", "code": 114.0, "sqm": 17573.0, "sqkm": 0.18 }, "geometry": { "type": "Point", "coordinates": [ 5.702783798900514, 45.170221911319494 ] } },
{ "type": "Feature", "properties": { "name": "Bas Seyssinet Seyssins", "code": 115.0, "sqm": 38586.0, "sqkm": 3.86 }, "geometry": { "type": "Point", "coordinates": [ 5.69347080527012, 45.170594318667192 ] } },
{ "type": "Feature", "properties": { "name": "Fontaine", "code": 116.0, "sqm": 67144.0, "sqkm": 6.71 }, "geometry": { "type": "Point", "coordinates": [ 5.67788422565445, 45.192917490084135 ] } },
{ "type": "Feature", "properties": { "name": "Bas St Martin le Vinoux", "code": 117.0, "sqm": 13026.0, "sqkm": 1.3 }, "geometry": { "type": "Point", "coordinates": [ 5.694101500903866, 45.213380929970725 ] } },
{ "type": "Feature", "properties": { "name": "St Egrve Sud Haut St Martin le Vinoux", "code": 118.0, "sqm": 13728.0, "sqkm": 13.73 }, "geometry": { "type": "Point", "coordinates": [ 5.710464428856143, 45.224215494468481 ] } },
{ "type": "Feature", "properties": { "name": "La Tronche Corenc", "code": 119.0, "sqm": 12669.0, "sqkm": 12.67 }, "geometry": { "type": "Point", "coordinates": [ 5.75122941156354, 45.218264965025654 ] } },
{ "type": "Feature", "properties": { "name": "Bas Meylan", "code": 120.0, "sqm": 75417.0, "sqkm": 7.54 }, "geometry": { "type": "Point", "coordinates": [ 5.783939156598985, 45.203774703687415 ] } },
{ "type": "Feature", "properties": { "name": "SMH Taillees", "code": 121.0, "sqm": 45588.0, "sqkm": 0.46 }, "geometry": { "type": "Point", "coordinates": [ 5.755239609395027, 45.19232206413588 ] } },
{ "type": "Feature", "properties": { "name": "SMH DU Gires Nord", "code": 122.0, "sqm": 44771.0, "sqkm": 4.48 }, "geometry": { "type": "Point", "coordinates": [ 5.784374132547673, 45.19220192285686 ] } },
{ "type": "Feature", "properties": { "name": "Saint Martin d'Hres Reste", "code": 123.0, "sqm": 49554.0, "sqkm": 4.96 }, "geometry": { "type": "Point", "coordinates": [ 5.769668977963933, 45.17654628553813 ] } },
{ "type": "Feature", "properties": { "name": "Saint Martin d'Hres Centre", "code": 124.0, "sqm": 51273.0, "sqkm": 0.51 }, "geometry": { "type": "Point", "coordinates": [ 5.757978052506255, 45.176234083880303 ] } },
{ "type": "Feature", "properties": { "name": "Renaudie", "code": 125.0, "sqm": 45924.0, "sqkm": 0.46 }, "geometry": { "type": "Point", "coordinates": [ 5.759431004636954, 45.171826012647998 ] } },
{ "type": "Feature", "properties": { "name": "SMH Sud Ouest", "code": 126.0, "sqm": 21322.0, "sqkm": 2.13 }, "geometry": { "type": "Point", "coordinates": [ 5.758727274934675, 45.166493136186254 ] } },
{ "type": "Feature", "properties": { "name": "Eybens Poisat", "code": 127.0, "sqm": 70979.0, "sqkm": 7.1 }, "geometry": { "type": "Point", "coordinates": [ 5.756128917161195, 45.152429029735565 ] } },
{ "type": "Feature", "properties": { "name": "Villeneuve d'Echirolles", "code": 128.0, "sqm": 86245.0, "sqkm": 0.86 }, "geometry": { "type": "Point", "coordinates": [ 5.729495143756441, 45.155769266687237 ] } },
{ "type": "Feature", "properties": { "name": "Essarts Surieux", "code": 129.0, "sqm": 50041.0, "sqkm": 0.5 }, "geometry": { "type": "Point", "coordinates": [ 5.718952933329361, 45.156348047783105 ] } },
{ "type": "Feature", "properties": { "name": "Echirolles Est", "code": 130.0, "sqm": 23404.0, "sqkm": 2.34 }, "geometry": { "type": "Point", "coordinates": [ 5.72617109294459, 45.141156743600291 ] } },
{ "type": "Feature", "properties": { "name": "Echirolles Centre", "code": 131.0, "sqm": 23010.0, "sqkm": 2.3 }, "geometry": { "type": "Point", "coordinates": [ 5.714094901102095, 45.146458844105744 ] } },
{ "type": "Feature", "properties": { "name": "Echirolles Ouest", "code": 132.0, "sqm": 21126.0, "sqkm": 2.11 }, "geometry": { "type": "Point", "coordinates": [ 5.700438155181683, 45.149819069333532 ] } },
{ "type": "Feature", "properties": { "name": "Haut Seyssinet Seyssins", "code": 133.0, "sqm": 14911.0, "sqkm": 14.91 }, "geometry": { "type": "Point", "coordinates": [ 5.666175537914883, 45.163843744493185 ] } },
{ "type": "Feature", "properties": { "name": "Sassenage", "code": 134.0, "sqm": 13300.0, "sqkm": 13.3 }, "geometry": { "type": "Point", "coordinates": [ 5.651536329520629, 45.21290088706855 ] } },
{ "type": "Feature", "properties": { "name": "St Egrve Nord Fontanil", "code": 135.0, "sqm": 11147.0, "sqkm": 11.15 }, "geometry": { "type": "Point", "coordinates": [ 5.669656309696398, 45.243832643402271 ] } },
{ "type": "Feature", "properties": { "name": "Haut Meylan", "code": 136.0, "sqm": 49246.0, "sqkm": 4.92 }, "geometry": { "type": "Point", "coordinates": [ 5.784730568555594, 45.224786640030715 ] } },
{ "type": "Feature", "properties": { "name": "Domne Murianette", "code": 137.0, "sqm": 11692.0, "sqkm": 11.69 }, "geometry": { "type": "Point", "coordinates": [ 5.830881026402224, 45.19577432993762 ] } },
{ "type": "Feature", "properties": { "name": "Gires Sud", "code": 138.0, "sqm": 34751.0, "sqkm": 3.48 }, "geometry": { "type": "Point", "coordinates": [ 5.793155773892749, 45.173487513571963 ] } },
{ "type": "Feature", "properties": { "name": "Pont de Claix", "code": 139.0, "sqm": 55872.0, "sqkm": 5.59 }, "geometry": { "type": "Point", "coordinates": [ 5.701538050202134, 45.125889192768696 ] } },
{ "type": "Feature", "properties": { "name": "Claix", "code": 140.0, "sqm": 23461.0, "sqkm": 23.46 }, "geometry": { "type": "Point", "coordinates": [ 5.656363408946515, 45.122295351985009 ] } },
{ "type": "Feature", "properties": { "name": "Noyarey Veurey", "code": 141.0, "sqm": 29487.0, "sqkm": 29.49 }, "geometry": { "type": "Point", "coordinates": [ 5.611862866235339, 45.2534414064285 ] } },
{ "type": "Feature", "properties": { "name": "Varces tir", "code": 142.0, "sqm": 40698.0, "sqkm": 40.7 }, "geometry": { "type": "Point", "coordinates": [ 5.654755698010299, 45.07852140793117 ] } },
{ "type": "Feature", "properties": { "name": "Vif tir", "code": 143.0, "sqm": 56003.0, "sqkm": 56.0 }, "geometry": { "type": "Point", "coordinates": [ 5.644252502460334, 45.0279900976508 ] } },
{ "type": "Feature", "properties": { "name": "La Cote St Andr tir", "code": 201.0, "sqm": 23971.0, "sqkm": 239.7 }, "geometry": { "type": "Point", "coordinates": [ 5.242557269261757, 45.393377392499737 ] } },
{ "type": "Feature", "properties": { "name": "St Etienne de St Geoirs tir", "code": 202.0, "sqm": 88275.0, "sqkm": 88.28 }, "geometry": { "type": "Point", "coordinates": [ 5.351981292643734, 45.318374103464151 ] } },
{ "type": "Feature", "properties": { "name": "Le Grand Lemps tir", "code": 203.0, "sqm": 13182.0, "sqkm": 131.8 }, "geometry": { "type": "Point", "coordinates": [ 5.418242728144272, 45.422405876901841 ] } },
{ "type": "Feature", "properties": { "name": "Beaucroissant tir", "code": 204.0, "sqm": 39445.0, "sqkm": 39.45 }, "geometry": { "type": "Point", "coordinates": [ 5.449655825290804, 45.335717925047412 ] } },
{ "type": "Feature", "properties": { "name": "CC Chambaran et Beaurepaire", "code": 205.0, "sqm": 37934.0, "sqkm": 379.3 }, "geometry": { "type": "Point", "coordinates": [ 5.105159269920952, 45.340373527717702 ] } },
{ "type": "Feature", "properties": { "name": "St Martin d'Uriage tir", "code": 301.0, "sqm": 68645.0, "sqkm": 68.65 }, "geometry": { "type": "Point", "coordinates": [ 5.856618628742105, 45.139278297301992 ] } },
{ "type": "Feature", "properties": { "name": "Montbonnot", "code": 302.0, "sqm": 66695.0, "sqkm": 6.67 }, "geometry": { "type": "Point", "coordinates": [ 5.815574226191077, 45.221505057770933 ] } },
{ "type": "Feature", "properties": { "name": "Biviers St Ismier St Nazaire les Eymes", "code": 303.0, "sqm": 29882.0, "sqkm": 29.88 }, "geometry": { "type": "Point", "coordinates": [ 5.828931450719288, 45.251981540587209 ] } },
{ "type": "Feature", "properties": { "name": "Le Versoud Villard  Bonnot", "code": 304.0, "sqm": 12071.0, "sqkm": 12.07 }, "geometry": { "type": "Point", "coordinates": [ 5.873751945467073, 45.233345116560194 ] } },
{ "type": "Feature", "properties": { "name": "Crolles Bernin", "code": 305.0, "sqm": 22191.0, "sqkm": 22.19 }, "geometry": { "type": "Point", "coordinates": [ 5.880243378074468, 45.276101513781512 ] } },
{ "type": "Feature", "properties": { "name": "Froges tir", "code": 306.0, "sqm": 21567.0, "sqkm": 21.57 }, "geometry": { "type": "Point", "coordinates": [ 5.941682856862409, 45.288166466278362 ] } },
{ "type": "Feature", "properties": { "name": "Lumbin La Terrasse", "code": 307.0, "sqm": 15678.0, "sqkm": 15.68 }, "geometry": { "type": "Point", "coordinates": [ 5.923964312823646, 45.31656575417805 ] } },
{ "type": "Feature", "properties": { "name": "balcons Belledonne", "code": 308.0, "sqm": 17154.0, "sqkm": 171.5 }, "geometry": { "type": "Point", "coordinates": [ 5.960547515556369, 45.229845391766645 ] } },
{ "type": "Feature", "properties": { "name": "Goncelin tir", "code": 309.0, "sqm": 29825.0, "sqkm": 29.83 }, "geometry": { "type": "Point", "coordinates": [ 5.995872177560868, 45.35655072805681 ] } },
{ "type": "Feature", "properties": { "name": "Le Touvet tir", "code": 310.0, "sqm": 33175.0, "sqkm": 33.18 }, "geometry": { "type": "Point", "coordinates": [ 5.96220604176354, 45.377261891390006 ] } },
{ "type": "Feature", "properties": { "name": "Plateau des petites roches", "code": 311.0, "sqm": 60621.0, "sqkm": 60.62 }, "geometry": { "type": "Point", "coordinates": [ 5.903215203724174, 45.36286105131169 ] } },
{ "type": "Feature", "properties": { "name": "Chapareillan Barraux", "code": 312.0, "sqm": 41403.0, "sqkm": 41.4 }, "geometry": { "type": "Point", "coordinates": [ 5.964345720007382, 45.454651387904669 ] } },
{ "type": "Feature", "properties": { "name": "Pontcharra St Maximin", "code": 313.0, "sqm": 26314.0, "sqkm": 26.31 }, "geometry": { "type": "Point", "coordinates": [ 6.032196771958322, 45.422528505836709 ] } },
{ "type": "Feature", "properties": { "name": "Allevard tir", "code": 314.0, "sqm": 21248.0, "sqkm": 212.4 }, "geometry": { "type": "Point", "coordinates": [ 6.099921448009968, 45.337747412655688 ] } },
{ "type": "Feature", "properties": { "name": "Herbeys Brie Bresson", "code": 401.0, "sqm": 20636.0, "sqkm": 20.64 }, "geometry": { "type": "Point", "coordinates": [ 5.781925054485505, 45.132400277445328 ] } },
{ "type": "Feature", "properties": { "name": "Plateau de Champagnier", "code": 402.0, "sqm": 22446.0, "sqkm": 22.45 }, "geometry": { "type": "Point", "coordinates": [ 5.740033784125163, 45.109177411739026 ] } },
{ "type": "Feature", "properties": { "name": "Vizille tir", "code": 403.0, "sqm": 63353.0, "sqkm": 63.35 }, "geometry": { "type": "Point", "coordinates": [ 5.790824262145803, 45.07432540467439 ] } },
{ "type": "Feature", "properties": { "name": "Voiron centre largi", "code": 501.0, "sqm": 25277.0, "sqkm": 2.53 }, "geometry": { "type": "Point", "coordinates": [ 5.592927140207491, 45.363504850783499 ] } },
{ "type": "Feature", "properties": { "name": "Voiron Criel Maubec", "code": 502.0, "sqm": 21904.0, "sqkm": 2.19 }, "geometry": { "type": "Point", "coordinates": [ 5.578364367428208, 45.353195826314341 ] } },
{ "type": "Feature", "properties": { "name": "Voiron Brunetire", "code": 503.0, "sqm": 75822.0, "sqkm": 0.76 }, "geometry": { "type": "Point", "coordinates": [ 5.576684420127313, 45.359926080367451 ] } },
{ "type": "Feature", "properties": { "name": "Voiron Nord", "code": 504.0, "sqm": 16549.0, "sqkm": 16.55 }, "geometry": { "type": "Point", "coordinates": [ 5.581760610375218, 45.385644727015652 ] } },
{ "type": "Feature", "properties": { "name": "Coublevie", "code": 505.0, "sqm": 69709.0, "sqkm": 6.97 }, "geometry": { "type": "Point", "coordinates": [ 5.61813625107499, 45.356653195774406 ] } },
{ "type": "Feature", "properties": { "name": "La Buisse tir", "code": 506.0, "sqm": 11700.0, "sqkm": 11.7 }, "geometry": { "type": "Point", "coordinates": [ 5.623445072440829, 45.331008884271448 ] } },
{ "type": "Feature", "properties": { "name": "St Jean de Moirans", "code": 507.0, "sqm": 64206.0, "sqkm": 6.42 }, "geometry": { "type": "Point", "coordinates": [ 5.587468374567819, 45.337043274794254 ] } },
{ "type": "Feature", "properties": { "name": "St Cassien tir", "code": 508.0, "sqm": 15924.0, "sqkm": 15.92 }, "geometry": { "type": "Point", "coordinates": [ 5.534311687898463, 45.355663300533948 ] } },
{ "type": "Feature", "properties": { "name": "La Murette St Blaise du Buis", "code": 509.0, "sqm": 98352.0, "sqkm": 9.84 }, "geometry": { "type": "Point", "coordinates": [ 5.524770722215783, 45.381072976436869 ] } },
{ "type": "Feature", "properties": { "name": "Chirens tir", "code": 510.0, "sqm": 33361.0, "sqkm": 33.36 }, "geometry": { "type": "Point", "coordinates": [ 5.54528584428413, 45.425849032588111 ] } },
{ "type": "Feature", "properties": { "name": "St Etienne de Crossey tir", "code": 511.0, "sqm": 35864.0, "sqkm": 35.86 }, "geometry": { "type": "Point", "coordinates": [ 5.639058098422775, 45.396803417973672 ] } },
{ "type": "Feature", "properties": { "name": "Voreppe tir", "code": 512.0, "sqm": 56828.0, "sqkm": 56.83 }, "geometry": { "type": "Point", "coordinates": [ 5.657951914322868, 45.309749995396174 ] } },
{ "type": "Feature", "properties": { "name": "Moirans", "code": 513.0, "sqm": 20028.0, "sqkm": 20.03 }, "geometry": { "type": "Point", "coordinates": [ 5.561774301255523, 45.318765960718579 ] } },
{ "type": "Feature", "properties": { "name": "Vourey", "code": 514.0, "sqm": 68740.0, "sqkm": 6.87 }, "geometry": { "type": "Point", "coordinates": [ 5.522236332471305, 45.316660785561382 ] } },
{ "type": "Feature", "properties": { "name": "Tullins Morette", "code": 515.0, "sqm": 35542.0, "sqkm": 35.54 }, "geometry": { "type": "Point", "coordinates": [ 5.483260965831082, 45.292158277109088 ] } },
{ "type": "Feature", "properties": { "name": "Rives", "code": 516.0, "sqm": 11095.0, "sqkm": 11.1 }, "geometry": { "type": "Point", "coordinates": [ 5.486837326887459, 45.360491941414729 ] } },
{ "type": "Feature", "properties": { "name": "tour lac Paladru", "code": 517.0, "sqm": 52326.0, "sqkm": 52.33 }, "geometry": { "type": "Point", "coordinates": [ 5.563810438838624, 45.485661299617519 ] } },
{ "type": "Feature", "properties": { "name": "St Geoire en Valdaine tir", "code": 518.0, "sqm": 65888.0, "sqkm": 65.89 }, "geometry": { "type": "Point", "coordinates": [ 5.639775517920959, 45.458279053883487 ] } },
{ "type": "Feature", "properties": { "name": "St Quentin Montaud", "code": 519.0, "sqm": 34132.0, "sqkm": 34.13 }, "geometry": { "type": "Point", "coordinates": [ 5.553695979534143, 45.270258213525558 ] } },
{ "type": "Feature", "properties": { "name": "Pays de Vinay tir", "code": 601.0, "sqm": 19395.0, "sqkm": 193.9 }, "geometry": { "type": "Point", "coordinates": [ 5.428054417492616, 45.220054746103095 ] } },
{ "type": "Feature", "properties": { "name": "St Marcellin Chatte tir", "code": 602.0, "sqm": 30652.0, "sqkm": 30.65 }, "geometry": { "type": "Point", "coordinates": [ 5.289237195264861, 45.143213532014691 ] } },
{ "type": "Feature", "properties": { "name": "Reste Sud Gresivaudan", "code": 603.0, "sqm": 33071.0, "sqkm": 330.7 }, "geometry": { "type": "Point", "coordinates": [ 5.321485522680367, 45.128821072392697 ] } },
{ "type": "Feature", "properties": { "name": "Plateau du vercors", "code": 701.0, "sqm": 25523.0, "sqkm": 255.2 }, "geometry": { "type": "Point", "coordinates": [ 5.556555644031647, 45.110483925189079 ] } },
{ "type": "Feature", "properties": { "name": "cc du canton de monestier", "code": 805.0, "sqm": 23437.0, "sqkm": 234.3 }, "geometry": { "type": "Point", "coordinates": [ 5.578092841556676, 44.925453214918797 ] } },
{ "type": "Feature", "properties": { "name": "Monteynard tir", "code": 803.0, "sqm": 59143.0, "sqkm": 59.14 }, "geometry": { "type": "Point", "coordinates": [ 5.708786306640182, 44.973984450240934 ] } },
{ "type": "Feature", "properties": { "name": "La Mure tir", "code": 802.0, "sqm": 11827.0, "sqkm": 118.2 }, "geometry": { "type": "Point", "coordinates": [ 5.789788483637769, 44.987749458071853 ] } },
{ "type": "Feature", "properties": { "name": "Extension Trives", "code": 804.0, "sqm": 41059.0, "sqkm": 410.5 }, "geometry": { "type": "Point", "coordinates": [ 5.69156198948999, 44.801475585376494 ] } },
{ "type": "Feature", "properties": { "name": "Extension Plateau Matheysin", "code": 801.0, "sqm": 57141.0, "sqkm": 571.4 }, "geometry": { "type": "Point", "coordinates": [ 5.939830934364883, 44.898397330404151 ] } },
{ "type": "Feature", "properties": { "name": "Extension Oisans", "code": 806.0, "sqm": 83434.0, "sqkm": 834.3 }, "geometry": { "type": "Point", "coordinates": [ 6.120937488463512, 45.042642313746192 ] } },
{ "type": "Feature", "properties": { "name": "Sud Chartreuse tir", "code": 901.0, "sqm": 66455.0, "sqkm": 66.46 }, "geometry": { "type": "Point", "coordinates": [ 5.737887955102425, 45.273149864510913 ] } },
{ "type": "Feature", "properties": { "name": "St Pierre de Chartreuse tir", "code": 902.0, "sqm": 11191.0, "sqkm": 111.9 }, "geometry": { "type": "Point", "coordinates": [ 5.813315073110166, 45.347001463166407 ] } },
{ "type": "Feature", "properties": { "name": "St Laurent du Pont", "code": 903.0, "sqm": 11592.0, "sqkm": 115.9 }, "geometry": { "type": "Point", "coordinates": [ 5.735182401155765, 45.401484517145917 ] } }
]
}
