{
"type": "FeatureCollection",
"name": "DTIR_centroids",
"features": [
{ "type": "Feature", "properties": { "code": "01", "name": "Rennes", "lat": 48.113608994830066, "long": -1.6653568604430495 }, "geometry": { "type": "Point", "coordinates": [ -1.66535686044305, 48.113608994830066 ] } },
{ "type": "Feature", "properties": { "code": "02", "name": "Rennes", "lat": 48.11035904643601, "long": -1.6788938703649514 }, "geometry": { "type": "Point", "coordinates": [ -1.678893870364951, 48.11035904643601 ] } },
{ "type": "Feature", "properties": { "code": "03", "name": "Rennes", "lat": 48.107965657273837, "long": -1.6922530022081865 }, "geometry": { "type": "Point", "coordinates": [ -1.692253002208187, 48.107965657273837 ] } },
{ "type": "Feature", "properties": { "code": "04", "name": "Rennes", "lat": 48.099427265194777, "long": -1.7239768227439345 }, "geometry": { "type": "Point", "coordinates": [ -1.723976822743934, 48.099427265194777 ] } },
{ "type": "Feature", "properties": { "code": "05", "name": "Rennes", "lat": 48.119786149838411, "long": -1.7027247910055388 }, "geometry": { "type": "Point", "coordinates": [ -1.702724791005539, 48.119786149838411 ] } },
{ "type": "Feature", "properties": { "code": "06", "name": "Rennes", "lat": 48.131637406454189, "long": -1.7079674560077545 }, "geometry": { "type": "Point", "coordinates": [ -1.707967456007754, 48.131637406454189 ] } },
{ "type": "Feature", "properties": { "code": "07", "name": "Rennes", "lat": 48.127723219816595, "long": -1.6591132040349243 }, "geometry": { "type": "Point", "coordinates": [ -1.659113204034924, 48.127723219816595 ] } },
{ "type": "Feature", "properties": { "code": "08", "name": "Rennes", "lat": 48.129199339445982, "long": -1.6480561470063302 }, "geometry": { "type": "Point", "coordinates": [ -1.64805614700633, 48.129199339445982 ] } },
{ "type": "Feature", "properties": { "code": "09", "name": "Rennes", "lat": 48.098958502180473, "long": -1.6478856238772395 }, "geometry": { "type": "Point", "coordinates": [ -1.647885623877239, 48.098958502180473 ] } },
{ "type": "Feature", "properties": { "code": "10", "name": "Rennes", "lat": 48.086457957465022, "long": -1.6514140533137971 }, "geometry": { "type": "Point", "coordinates": [ -1.651414053313797, 48.086457957465022 ] } },
{ "type": "Feature", "properties": { "code": "11", "name": "Rennes", "lat": 48.09130286318883, "long": -1.6747898896596625 }, "geometry": { "type": "Point", "coordinates": [ -1.674789889659662, 48.09130286318883 ] } },
{ "type": "Feature", "properties": { "code": "12", "name": "Rennes", "lat": 48.089437472362846, "long": -1.6890091019196107 }, "geometry": { "type": "Point", "coordinates": [ -1.689009101919611, 48.089437472362846 ] } },
{ "type": "Feature", "properties": { "code": "21", "name": "Saint-Grégoire", "lat": 48.158417199034389, "long": -1.6853389700614294 }, "geometry": { "type": "Point", "coordinates": [ -1.685338970061429, 48.158417199034389 ] } },
{ "type": "Feature", "properties": { "code": "22", "name": "Betton", "lat": 48.181246859976206, "long": -1.646510763250925 }, "geometry": { "type": "Point", "coordinates": [ -1.646510763250925, 48.181246859976206 ] } },
{ "type": "Feature", "properties": { "code": "23", "name": "Acigné", "lat": 48.144029885418533, "long": -1.5322902377561585 }, "geometry": { "type": "Point", "coordinates": [ -1.532290237756158, 48.144029885418533 ] } },
{ "type": "Feature", "properties": { "code": "24", "name": "Cesson-Sévigné", "lat": 48.120453661764131, "long": -1.5972744932256198 }, "geometry": { "type": "Point", "coordinates": [ -1.59727449322562, 48.120453661764131 ] } },
{ "type": "Feature", "properties": { "code": "25", "name": "Chantepie", "lat": 48.081988119179513, "long": -1.6039044853511826 }, "geometry": { "type": "Point", "coordinates": [ -1.603904485351183, 48.081988119179513 ] } },
{ "type": "Feature", "properties": { "code": "26", "name": "Vern-sur-Seiche", "lat": 48.052762720429264, "long": -1.6051498764219081 }, "geometry": { "type": "Point", "coordinates": [ -1.605149876421908, 48.052762720429264 ] } },
{ "type": "Feature", "properties": { "code": "27", "name": "Nouvoitou", "lat": 48.005898404529866, "long": -1.564979614117648 }, "geometry": { "type": "Point", "coordinates": [ -1.564979614117648, 48.005898404529866 ] } },
{ "type": "Feature", "properties": { "code": "28", "name": "Saint-Erblon", "lat": 48.027232442691947, "long": -1.6471512867751945 }, "geometry": { "type": "Point", "coordinates": [ -1.647151286775195, 48.027232442691947 ] } },
{ "type": "Feature", "properties": { "code": "29", "name": "Laillé", "lat": 47.979055803290827, "long": -1.6973027400987082 }, "geometry": { "type": "Point", "coordinates": [ -1.697302740098708, 47.979055803290827 ] } },
{ "type": "Feature", "properties": { "code": "30", "name": "Chartres-de-Bretagne", "lat": 48.044933494736959, "long": -1.706449291297381 }, "geometry": { "type": "Point", "coordinates": [ -1.706449291297381, 48.044933494736959 ] } },
{ "type": "Feature", "properties": { "code": "31", "name": "Bruz", "lat": 48.025944926302152, "long": -1.7485748196849649 }, "geometry": { "type": "Point", "coordinates": [ -1.748574819684965, 48.025944926302152 ] } },
{ "type": "Feature", "properties": { "code": "32", "name": "Saint-Jacques-de-la-Lande", "lat": 48.076118901244726, "long": -1.7225460094006337 }, "geometry": { "type": "Point", "coordinates": [ -1.722546009400634, 48.076118901244726 ] } },
{ "type": "Feature", "properties": { "code": "33", "name": "Le Verger", "lat": 48.074447147879475, "long": -1.8543219228834309 }, "geometry": { "type": "Point", "coordinates": [ -1.854321922883431, 48.074447147879475 ] } },
{ "type": "Feature", "properties": { "code": "34", "name": "Le Rheu", "lat": 48.097276540689528, "long": -1.7811058119334602 }, "geometry": { "type": "Point", "coordinates": [ -1.78110581193346, 48.097276540689528 ] } },
{ "type": "Feature", "properties": { "code": "35", "name": "Mordelles", "lat": 48.085907934182927, "long": -1.8427786422979409 }, "geometry": { "type": "Point", "coordinates": [ -1.842778642297941, 48.085907934182927 ] } },
{ "type": "Feature", "properties": { "code": "36", "name": "La Chapelle-Chaussée", "lat": 48.203574961817665, "long": -1.847970237077287 }, "geometry": { "type": "Point", "coordinates": [ -1.847970237077287, 48.203574961817665 ] } },
{ "type": "Feature", "properties": { "code": "37", "name": "Pacé", "lat": 48.152683397948671, "long": -1.7772987244595981 }, "geometry": { "type": "Point", "coordinates": [ -1.777298724459598, 48.152683397948671 ] } },
{ "type": "Feature", "properties": { "code": "38", "name": "Chevaigné", "lat": 48.197462522234183, "long": -1.6651641510639157 }, "geometry": { "type": "Point", "coordinates": [ -1.665164151063916, 48.197462522234183 ] } },
{ "type": "Feature", "properties": { "code": "41", "name": "Melesse", "lat": 48.220221913562078, "long": -1.6988155714468003 }, "geometry": { "type": "Point", "coordinates": [ -1.6988155714468, 48.220221913562078 ] } },
{ "type": "Feature", "properties": { "code": "42", "name": "Saint-Germain-sur-Ille", "lat": 48.262136372173465, "long": -1.7370798632815789 }, "geometry": { "type": "Point", "coordinates": [ -1.737079863281579, 48.262136372173465 ] } },
{ "type": "Feature", "properties": { "code": "43", "name": "Montreuil-sur-Ille", "lat": 48.303997647886511, "long": -1.5764334174352277 }, "geometry": { "type": "Point", "coordinates": [ -1.576433417435228, 48.303997647886511 ] } },
{ "type": "Feature", "properties": { "code": "44", "name": "Ercé-près-Liffré", "lat": 48.198367263885594, "long": -1.4569861636215629 }, "geometry": { "type": "Point", "coordinates": [ -1.456986163621563, 48.198367263885594 ] } },
{ "type": "Feature", "properties": { "code": "45", "name": "Liffré", "lat": 48.20413979636303, "long": -1.5144317341782256 }, "geometry": { "type": "Point", "coordinates": [ -1.514431734178226, 48.20413979636303 ] } },
{ "type": "Feature", "properties": { "code": "46", "name": "Balazé", "lat": 48.161702709592454, "long": -1.1722582847912941 }, "geometry": { "type": "Point", "coordinates": [ -1.172258284791294, 48.161702709592454 ] } },
{ "type": "Feature", "properties": { "code": "47", "name": "Melesse", "lat": 48.161302765603459, "long": -1.4158253004411641 }, "geometry": { "type": "Point", "coordinates": [ -1.415825300441164, 48.161302765603459 ] } },
{ "type": "Feature", "properties": { "code": "48", "name": "Domalain", "lat": 47.978477328747722, "long": -1.2225939479499339 }, "geometry": { "type": "Point", "coordinates": [ -1.222593947949934, 47.978477328747722 ] } },
{ "type": "Feature", "properties": { "code": "49", "name": "Cornillé", "lat": 48.089770144470087, "long": -1.3226608409974963 }, "geometry": { "type": "Point", "coordinates": [ -1.322660840997496, 48.089770144470087 ] } },
{ "type": "Feature", "properties": { "code": "50", "name": "Piré-sur-Seiche", "lat": 48.060097537367795, "long": -1.4706625457225078 }, "geometry": { "type": "Point", "coordinates": [ -1.470662545722508, 48.060097537367795 ] } },
{ "type": "Feature", "properties": { "code": "51", "name": "Châteaugiron", "lat": 48.043997507579334, "long": -1.5012036470485253 }, "geometry": { "type": "Point", "coordinates": [ -1.501203647048525, 48.043997507579334 ] } },
{ "type": "Feature", "properties": { "code": "52", "name": "Essé", "lat": 47.899542533900231, "long": -1.3948680734390773 }, "geometry": { "type": "Point", "coordinates": [ -1.394868073439077, 47.899542533900231 ] } },
{ "type": "Feature", "properties": { "code": "53", "name": "Tresb?uf", "lat": 47.834397125075121, "long": -1.6437187605271488 }, "geometry": { "type": "Point", "coordinates": [ -1.643718760527149, 47.834397125075121 ] } },
{ "type": "Feature", "properties": { "code": "54", "name": "Redon", "lat": 47.661262337194678, "long": -2.080180136781383 }, "geometry": { "type": "Point", "coordinates": [ -2.080180136781383, 47.661262337194678 ] } },
{ "type": "Feature", "properties": { "code": "55", "name": "Bruc-sur-Aff", "lat": 47.763639926365215, "long": -1.9741130953257691 }, "geometry": { "type": "Point", "coordinates": [ -1.974113095325769, 47.763639926365215 ] } },
{ "type": "Feature", "properties": { "code": "56", "name": "Maure-de-Bretagne", "lat": 47.876173509208385, "long": -1.9318152415696634 }, "geometry": { "type": "Point", "coordinates": [ -1.931815241569663, 47.876173509208385 ] } },
{ "type": "Feature", "properties": { "code": "57", "name": "Guignen", "lat": 47.957515803310265, "long": -1.8297381184742585 }, "geometry": { "type": "Point", "coordinates": [ -1.829738118474258, 47.957515803310265 ] } },
{ "type": "Feature", "properties": { "code": "58", "name": "Treffendel", "lat": 48.022176293189219, "long": -2.0627773319275509 }, "geometry": { "type": "Point", "coordinates": [ -2.062777331927551, 48.022176293189219 ] } },
{ "type": "Feature", "properties": { "code": "59", "name": "Montfort-sur-Meu", "lat": 48.136421432083687, "long": -1.9742241197061539 }, "geometry": { "type": "Point", "coordinates": [ -1.974224119706154, 48.136421432083687 ] } },
{ "type": "Feature", "properties": { "code": "60", "name": "Quédillac", "lat": 48.187102414940419, "long": -2.106604269501045 }, "geometry": { "type": "Point", "coordinates": [ -2.106604269501045, 48.187102414940419 ] } },
{ "type": "Feature", "properties": { "code": "61", "name": "Hédé-Bazouges", "lat": 48.32604433692677, "long": -1.8534670647436793 }, "geometry": { "type": "Point", "coordinates": [ -1.853467064743679, 48.32604433692677 ] } },
{ "type": "Feature", "properties": { "code": "62", "name": "Trévérien", "lat": 48.408809199060087, "long": -1.792902853150327 }, "geometry": { "type": "Point", "coordinates": [ -1.792902853150327, 48.408809199060087 ] } },
{ "type": "Feature", "properties": { "code": "63", "name": "Dinard", "lat": 48.599325958873884, "long": -2.0711955538206608 }, "geometry": { "type": "Point", "coordinates": [ -2.071195553820661, 48.599325958873884 ] } },
{ "type": "Feature", "properties": { "code": "64", "name": "Saint-Malo", "lat": 48.654771171489088, "long": -1.9718236134721299 }, "geometry": { "type": "Point", "coordinates": [ -1.97182361347213, 48.654771171489088 ] } },
{ "type": "Feature", "properties": { "code": "65", "name": "Saint-Malo", "lat": 48.625459339521377, "long": -1.9891269198625758 }, "geometry": { "type": "Point", "coordinates": [ -1.989126919862576, 48.625459339521377 ] } },
{ "type": "Feature", "properties": { "code": "66", "name": "Saint-Père", "lat": 48.543756745912468, "long": -1.8982960723895064 }, "geometry": { "type": "Point", "coordinates": [ -1.898296072389506, 48.543756745912468 ] } },
{ "type": "Feature", "properties": { "code": "67", "name": "Cancale", "lat": 48.62952926415965, "long": -1.8794100184620997 }, "geometry": { "type": "Point", "coordinates": [ -1.8794100184621, 48.62952926415965 ] } },
{ "type": "Feature", "properties": { "code": "68", "name": "Le Vivier-sur-Mer", "lat": 48.540396490969634, "long": -1.6635338317521313 }, "geometry": { "type": "Point", "coordinates": [ -1.663533831752131, 48.540396490969634 ] } },
{ "type": "Feature", "properties": { "code": "69", "name": "La Fontenelle", "lat": 48.41826018506098, "long": -1.5244827222561261 }, "geometry": { "type": "Point", "coordinates": [ -1.524482722256126, 48.41826018506098 ] } },
{ "type": "Feature", "properties": { "code": "70", "name": "Saint-Marc-le-Blanc", "lat": 48.402233106699086, "long": -1.3310482791539047 }, "geometry": { "type": "Point", "coordinates": [ -1.331048279153905, 48.402233106699086 ] } },
{ "type": "Feature", "properties": { "code": "71", "name": "Mellé", "lat": 48.489962439882582, "long": -1.1999771906815124 }, "geometry": { "type": "Point", "coordinates": [ -1.199977190681512, 48.489962439882582 ] } },
{ "type": "Feature", "properties": { "code": "72", "name": "Billé", "lat": 48.362242966247344, "long": -1.1965405998859941 }, "geometry": { "type": "Point", "coordinates": [ -1.196540599885994, 48.362242966247344 ] } },
{ "type": "Feature", "properties": { "code": "73", "name": "Fougères", "lat": 48.336856986231183, "long": -1.1910322556913333 }, "geometry": { "type": "Point", "coordinates": [ -1.191032255691333, 48.336856986231183 ] } },
{ "type": "Feature", "properties": { "code": "74", "name": "La Chapelle-Saint-Aubert", "lat": 48.309128646844897, "long": -1.3234430499581238 }, "geometry": { "type": "Point", "coordinates": [ -1.323443049958124, 48.309128646844897 ] } },
{ "type": "Feature", "properties": { "code": "75", "name": "Saint-Aubin-du-Cormier", "lat": 48.25822906802594, "long": -1.4127075449242512 }, "geometry": { "type": "Point", "coordinates": [ -1.412707544924251, 48.25822906802594 ] } },
{ "type": "Feature", "properties": { "code": "81", "name": "Saint-Samson-sur-Rance\r\n", "lat": 48.544223479020452, "long": -2.118953260654783 }, "geometry": { "type": "Point", "coordinates": [ -2.118953260654783, 48.544223479020452 ] } },
{ "type": "Feature", "properties": { "code": "82", "name": "Taden", "lat": 48.427591099767724, "long": -2.0062034782950491 }, "geometry": { "type": "Point", "coordinates": [ -2.006203478295049, 48.427591099767724 ] } },
{ "type": "Feature", "properties": { "code": "83", "name": "Saint-Perreux\r\nSaint-Perreux\r\n", "lat": 47.652056287193894, "long": -2.183108254796974 }, "geometry": { "type": "Point", "coordinates": [ -2.183108254796974, 47.652056287193894 ] } }
]
}
