{
"type": "FeatureCollection",
"name": "D10_centroids",
"features": [
{ "type": "Feature", "properties": { "code": "01", "name": "Lyon - Villeurbanne", "lat": 45.758738043764325, "long": 4.8494141574460716 }, "geometry": { "type": "Point", "coordinates": [ 4.849414157446072, 45.758738043764325 ] } },
{ "type": "Feature", "properties": { "code": "02", "name": "Grand Lyon Hors Centre", "lat": 45.766618315077707, "long": 4.8529952113243562 }, "geometry": { "type": "Point", "coordinates": [ 4.852995211324356, 45.766618315077707 ] } },
{ "type": "Feature", "properties": { "code": "03", "name": "Vallons du Lyonnais secteur PTU\/Chaponost", "lat": 45.711795607773475, "long": 4.685375095318979 }, "geometry": { "type": "Point", "coordinates": [ 4.685375095318979, 45.711795607773475 ] } },
{ "type": "Feature", "properties": { "code": "04", "name": "Reste Sepal ( hors Grand Lyon)", "lat": 45.674676381591873, "long": 4.9889869582108251 }, "geometry": { "type": "Point", "coordinates": [ 4.988986958210825, 45.674676381591873 ] } },
{ "type": "Feature", "properties": { "code": "05", "name": "Viennois", "lat": 45.52084491071485, "long": 4.9185059542250631 }, "geometry": { "type": "Point", "coordinates": [ 4.918505954225063, 45.52084491071485 ] } },
{ "type": "Feature", "properties": { "code": "06", "name": "Nord Isère", "lat": 45.592636997065235, "long": 5.2475716877721332 }, "geometry": { "type": "Point", "coordinates": [ 5.247571687772133, 45.592636997065235 ] } },
{ "type": "Feature", "properties": { "code": "07", "name": "Région Saint Jeannaise\/ Nord Dauphiné", "lat": 45.532591884926966, "long": 5.1264036304947913 }, "geometry": { "type": "Point", "coordinates": [ 5.126403630494791, 45.532591884926966 ] } },
{ "type": "Feature", "properties": { "code": "08", "name": "Ouest Rhône", "lat": 45.711733031002481, "long": 4.564886488898118 }, "geometry": { "type": "Point", "coordinates": [ 4.564886488898118, 45.711733031002481 ] } },
{ "type": "Feature", "properties": { "code": "09", "name": "Beaujolais", "lat": 46.055504707093192, "long": 4.5416286664845362 }, "geometry": { "type": "Point", "coordinates": [ 4.541628666484536, 46.055504707093192 ] } },
{ "type": "Feature", "properties": { "code": "10", "name": "Ain", "lat": 45.946804246690341, "long": 5.0917454243759019 }, "geometry": { "type": "Point", "coordinates": [ 5.091745424375902, 45.946804246690341 ] } },
{ "type": "Feature", "properties": { "code": "11", "name": "Region de Condrieu\/Pays Roussillonais", "lat": 45.431099006219831, "long": 4.8060437259936197 }, "geometry": { "type": "Point", "coordinates": [ 4.80604372599362, 45.431099006219831 ] } },
{ "type": "Feature", "properties": { "code": "12", "name": "Boucles du Rhône\/ Boubre-Tisserands\/  Vallée Hien", "lat": 45.659879586378928, "long": 5.3978464941113042 }, "geometry": { "type": "Point", "coordinates": [ 5.397846494111304, 45.659879586378928 ] } }
]
}
