{
"type": "FeatureCollection",
"name": "DTIR_centroids",
"features": [
{ "type": "Feature", "properties": { "code": "101", "name": "Confluent", "lat": 45.741637207788536, "long": 4.821075404012519 }, "geometry": { "type": "Point", "coordinates": [ 4.821075404012519, 45.741637207788536 ] } },
{ "type": "Feature", "properties": { "code": "102", "name": "Ainay", "lat": 45.752628631244406, "long": 4.8295054134789712 }, "geometry": { "type": "Point", "coordinates": [ 4.829505413478971, 45.752628631244406 ] } },
{ "type": "Feature", "properties": { "code": "103", "name": "Bellecour\/Cordeliers", "lat": 45.759798096643294, "long": 4.8347853284191071 }, "geometry": { "type": "Point", "coordinates": [ 4.834785328419107, 45.759798096643294 ] } },
{ "type": "Feature", "properties": { "code": "104", "name": "Opera\/ Griffon", "lat": 45.769257106874761, "long": 4.8363080559124327 }, "geometry": { "type": "Point", "coordinates": [ 4.836308055912433, 45.769257106874761 ] } },
{ "type": "Feature", "properties": { "code": "105", "name": "Chartreux \/ GD Côte", "lat": 45.770539890900253, "long": 4.8256468690762873 }, "geometry": { "type": "Point", "coordinates": [ 4.825646869076287, 45.770539890900253 ] } },
{ "type": "Feature", "properties": { "code": "106", "name": "Cx Rousse Est", "lat": 45.778421658998873, "long": 4.8354455971116836 }, "geometry": { "type": "Point", "coordinates": [ 4.835445597111684, 45.778421658998873 ] } },
{ "type": "Feature", "properties": { "code": "107", "name": "Cx Rousse Ouest", "lat": 45.779294181160608, "long": 4.8196451812841969 }, "geometry": { "type": "Point", "coordinates": [ 4.819645181284197, 45.779294181160608 ] } },
{ "type": "Feature", "properties": { "code": "108", "name": "St Rambert-Pl de Paris", "lat": 45.795412372661438, "long": 4.8225703934156909 }, "geometry": { "type": "Point", "coordinates": [ 4.822570393415691, 45.795412372661438 ] } },
{ "type": "Feature", "properties": { "code": "109", "name": "Duchère", "lat": 45.786288080141503, "long": 4.7958072172560415 }, "geometry": { "type": "Point", "coordinates": [ 4.795807217256042, 45.786288080141503 ] } },
{ "type": "Feature", "properties": { "code": "110", "name": "Valmy\/Gare de Vaise", "lat": 45.779108175197614, "long": 4.8030812915937942 }, "geometry": { "type": "Point", "coordinates": [ 4.803081291593794, 45.779108175197614 ] } },
{ "type": "Feature", "properties": { "code": "111", "name": "Berthet\/Gravière", "lat": 45.767436448520016, "long": 4.8035342447847116 }, "geometry": { "type": "Point", "coordinates": [ 4.803534244784712, 45.767436448520016 ] } },
{ "type": "Feature", "properties": { "code": "112", "name": "Vieux Lyon", "lat": 45.762930711021106, "long": 4.8261154244219746 }, "geometry": { "type": "Point", "coordinates": [ 4.826115424421975, 45.762930711021106 ] } },
{ "type": "Feature", "properties": { "code": "113", "name": "St Just\/St Irénée", "lat": 45.756514859497791, "long": 4.8152364146810402 }, "geometry": { "type": "Point", "coordinates": [ 4.81523641468104, 45.756514859497791 ] } },
{ "type": "Feature", "properties": { "code": "114", "name": "Champvert\/Point du jour", "lat": 45.758404991510218, "long": 4.7969934336079589 }, "geometry": { "type": "Point", "coordinates": [ 4.796993433607959, 45.758404991510218 ] } },
{ "type": "Feature", "properties": { "code": "115", "name": "Valdo", "lat": 45.751266456162661, "long": 4.7856226146455709 }, "geometry": { "type": "Point", "coordinates": [ 4.785622614645571, 45.751266456162661 ] } },
{ "type": "Feature", "properties": { "code": "116", "name": "Part Dieu", "lat": 45.757355059035902, "long": 4.8570873187354602 }, "geometry": { "type": "Point", "coordinates": [ 4.85708731873546, 45.757355059035902 ] } },
{ "type": "Feature", "properties": { "code": "117", "name": "Moncey\/Saxe", "lat": 45.756197541499517, "long": 4.8493421837764004 }, "geometry": { "type": "Point", "coordinates": [ 4.8493421837764, 45.756197541499517 ] } },
{ "type": "Feature", "properties": { "code": "118", "name": "Guillotière\/ Madeleine", "lat": 45.748016668828576, "long": 4.8532303135838823 }, "geometry": { "type": "Point", "coordinates": [ 4.853230313583882, 45.748016668828576 ] } },
{ "type": "Feature", "properties": { "code": "119", "name": "Manufacture", "lat": 45.743498070301904, "long": 4.863127022398837 }, "geometry": { "type": "Point", "coordinates": [ 4.863127022398837, 45.743498070301904 ] } },
{ "type": "Feature", "properties": { "code": "120", "name": "MONTPLAISIR", "lat": 45.739086348551851, "long": 4.8706371158356783 }, "geometry": { "type": "Point", "coordinates": [ 4.870637115835678, 45.739086348551851 ] } },
{ "type": "Feature", "properties": { "code": "121", "name": "Läennec\/Mermoz", "lat": 45.735916078312229, "long": 4.8826014856235638 }, "geometry": { "type": "Point", "coordinates": [ 4.882601485623564, 45.735916078312229 ] } },
{ "type": "Feature", "properties": { "code": "122", "name": "Hopitaux\/Monchat", "lat": 45.747902852511999, "long": 4.8872428904021419 }, "geometry": { "type": "Point", "coordinates": [ 4.887242890402142, 45.747902852511999 ] } },
{ "type": "Feature", "properties": { "code": "123", "name": "Feuillat Harmonie\/ Sans souci", "lat": 45.749321750519748, "long": 4.8696775493891424 }, "geometry": { "type": "Point", "coordinates": [ 4.869677549389142, 45.749321750519748 ] } },
{ "type": "Feature", "properties": { "code": "124", "name": "Sainte Anne", "lat": 45.756463444348029, "long": 4.8729624382114576 }, "geometry": { "type": "Point", "coordinates": [ 4.872962438211458, 45.756463444348029 ] } },
{ "type": "Feature", "properties": { "code": "125", "name": "Villette\/Tiers", "lat": 45.761880439655265, "long": 4.8645291908189892 }, "geometry": { "type": "Point", "coordinates": [ 4.864529190818989, 45.761880439655265 ] } },
{ "type": "Feature", "properties": { "code": "126", "name": "Cité internationale\/ Brotteaux", "lat": 45.776432087561005, "long": 4.8512956130472968 }, "geometry": { "type": "Point", "coordinates": [ 4.851295613047297, 45.776432087561005 ] } },
{ "type": "Feature", "properties": { "code": "127", "name": "Mairie 6e\/Récamier", "lat": 45.766097013847499, "long": 4.8513343918065255 }, "geometry": { "type": "Point", "coordinates": [ 4.851334391806525, 45.766097013847499 ] } },
{ "type": "Feature", "properties": { "code": "128", "name": "Prefecture", "lat": 45.760589427266922, "long": 4.8451144283143401 }, "geometry": { "type": "Point", "coordinates": [ 4.84511442831434, 45.760589427266922 ] } },
{ "type": "Feature", "properties": { "code": "129", "name": "Universités - Guillotière", "lat": 45.750372925848005, "long": 4.8394851134820156 }, "geometry": { "type": "Point", "coordinates": [ 4.839485113482016, 45.750372925848005 ] } },
{ "type": "Feature", "properties": { "code": "130", "name": "Gerland-Girondins", "lat": 45.738402169788621, "long": 4.8318969479591942 }, "geometry": { "type": "Point", "coordinates": [ 4.831896947959194, 45.738402169788621 ] } },
{ "type": "Feature", "properties": { "code": "131", "name": "Gerland Sud", "lat": 45.725671979972738, "long": 4.8360120439444261 }, "geometry": { "type": "Point", "coordinates": [ 4.836012043944426, 45.725671979972738 ] } },
{ "type": "Feature", "properties": { "code": "132", "name": "Berthelot", "lat": 45.744044795681056, "long": 4.8489351471206517 }, "geometry": { "type": "Point", "coordinates": [ 4.848935147120652, 45.744044795681056 ] } },
{ "type": "Feature", "properties": { "code": "133", "name": "Grand Trou", "lat": 45.730609695763135, "long": 4.8534522864615672 }, "geometry": { "type": "Point", "coordinates": [ 4.853452286461567, 45.730609695763135 ] } },
{ "type": "Feature", "properties": { "code": "134", "name": "Etats Unis", "lat": 45.731422103325627, "long": 4.8650351269092518 }, "geometry": { "type": "Point", "coordinates": [ 4.865035126909252, 45.731422103325627 ] } },
{ "type": "Feature", "properties": { "code": "135", "name": "Grange Rouge", "lat": 45.727635834514039, "long": 4.8788743702781483 }, "geometry": { "type": "Point", "coordinates": [ 4.878874370278148, 45.727635834514039 ] } },
{ "type": "Feature", "properties": { "code": "136", "name": "Perralière\/ 4 Aôut", "lat": 45.765617111430238, "long": 4.8911067363294762 }, "geometry": { "type": "Point", "coordinates": [ 4.891106736329476, 45.765617111430238 ] } },
{ "type": "Feature", "properties": { "code": "137", "name": "Gratte-Ciel Nord-Perroncel", "lat": 45.773039255805088, "long": 4.8826337981298629 }, "geometry": { "type": "Point", "coordinates": [ 4.882633798129863, 45.773039255805088 ] } },
{ "type": "Feature", "properties": { "code": "138", "name": "Charpennes", "lat": 45.772472026322248, "long": 4.870025300248896 }, "geometry": { "type": "Point", "coordinates": [ 4.870025300248896, 45.772472026322248 ] } },
{ "type": "Feature", "properties": { "code": "139", "name": "Gratte-Ciel\/République", "lat": 45.767267120918788, "long": 4.8754566904288001 }, "geometry": { "type": "Point", "coordinates": [ 4.8754566904288, 45.767267120918788 ] } },
{ "type": "Feature", "properties": { "code": "140", "name": "Tolstoï \/ Maisons neuves", "lat": 45.759993792295255, "long": 4.8799715345316645 }, "geometry": { "type": "Point", "coordinates": [ 4.879971534531665, 45.759993792295255 ] } },
{ "type": "Feature", "properties": { "code": "141", "name": "Genas\/Grand Clément", "lat": 45.757034319534483, "long": 4.8946434702372512 }, "geometry": { "type": "Point", "coordinates": [ 4.894643470237251, 45.757034319534483 ] } },
{ "type": "Feature", "properties": { "code": "142", "name": "Bon Coin", "lat": 45.760119272763419, "long": 4.9040184564944056 }, "geometry": { "type": "Point", "coordinates": [ 4.904018456494406, 45.760119272763419 ] } },
{ "type": "Feature", "properties": { "code": "143", "name": "Bonnevay", "lat": 45.761087316072604, "long": 4.9121506682385627 }, "geometry": { "type": "Point", "coordinates": [ 4.912150668238563, 45.761087316072604 ] } },
{ "type": "Feature", "properties": { "code": "144", "name": "Buers\/ Sallengro\/st Jean", "lat": 45.779482248123848, "long": 4.8962751047036432 }, "geometry": { "type": "Point", "coordinates": [ 4.896275104703643, 45.779482248123848 ] } },
{ "type": "Feature", "properties": { "code": "145", "name": "Doua\/Cx Luizet", "lat": 45.784766600055683, "long": 4.8752563822270538 }, "geometry": { "type": "Point", "coordinates": [ 4.875256382227054, 45.784766600055683 ] } },
{ "type": "Feature", "properties": { "code": "146", "name": "Tonkin\/Stalingrad", "lat": 45.775407537479246, "long": 4.8638395564727723 }, "geometry": { "type": "Point", "coordinates": [ 4.863839556472772, 45.775407537479246 ] } },
{ "type": "Feature", "properties": { "code": "201", "name": "Bron Centre et Sud", "lat": 45.7288506678643, "long": 4.9166021176528396 }, "geometry": { "type": "Point", "coordinates": [ 4.91660211765284, 45.7288506678643 ] } },
{ "type": "Feature", "properties": { "code": "202", "name": "Terraillon", "lat": 45.742873998987399, "long": 4.9239429836655049 }, "geometry": { "type": "Point", "coordinates": [ 4.923942983665505, 45.742873998987399 ] } },
{ "type": "Feature", "properties": { "code": "203", "name": "Bron Nord-Ouest", "lat": 45.74206566146173, "long": 4.9110740448490526 }, "geometry": { "type": "Point", "coordinates": [ 4.911074044849053, 45.74206566146173 ] } },
{ "type": "Feature", "properties": { "code": "204", "name": "Parilly\/Essarts", "lat": 45.738376025005266, "long": 4.9002353026176859 }, "geometry": { "type": "Point", "coordinates": [ 4.900235302617686, 45.738376025005266 ] } },
{ "type": "Feature", "properties": { "code": "205", "name": "Vénissieux - Moulin à Vent", "lat": 45.722478798568709, "long": 4.8645290595223711 }, "geometry": { "type": "Point", "coordinates": [ 4.864529059522371, 45.722478798568709 ] } },
{ "type": "Feature", "properties": { "code": "206", "name": "Vénissieux- Parilly", "lat": 45.712539196019925, "long": 4.8863810035658739 }, "geometry": { "type": "Point", "coordinates": [ 4.886381003565874, 45.712539196019925 ] } },
{ "type": "Feature", "properties": { "code": "207", "name": "Vénissieux  Centre", "lat": 45.69097484084633, "long": 4.8886429248165797 }, "geometry": { "type": "Point", "coordinates": [ 4.88864292481658, 45.69097484084633 ] } },
{ "type": "Feature", "properties": { "code": "208", "name": "Minguettes", "lat": 45.697282153760668, "long": 4.8694333109780858 }, "geometry": { "type": "Point", "coordinates": [ 4.869433310978086, 45.697282153760668 ] } },
{ "type": "Feature", "properties": { "code": "209", "name": "St Fons", "lat": 45.701532870212574, "long": 4.8511019399546402 }, "geometry": { "type": "Point", "coordinates": [ 4.85110193995464, 45.701532870212574 ] } },
{ "type": "Feature", "properties": { "code": "210", "name": "Pierre- Bénite", "lat": 45.701794472345526, "long": 4.8275095949518132 }, "geometry": { "type": "Point", "coordinates": [ 4.827509594951813, 45.701794472345526 ] } },
{ "type": "Feature", "properties": { "code": "211", "name": "Oullins Centre\/Est", "lat": 45.713634147600729, "long": 4.8133836613818417 }, "geometry": { "type": "Point", "coordinates": [ 4.813383661381842, 45.713634147600729 ] } },
{ "type": "Feature", "properties": { "code": "212", "name": "Oullins Nord\/Ouest", "lat": 45.716252999698085, "long": 4.7982998961590821 }, "geometry": { "type": "Point", "coordinates": [ 4.798299896159082, 45.716252999698085 ] } },
{ "type": "Feature", "properties": { "code": "213", "name": "Ste Foy Sud - Mulatière", "lat": 45.729661672299507, "long": 4.8010072195150109 }, "geometry": { "type": "Point", "coordinates": [ 4.801007219515011, 45.729661672299507 ] } },
{ "type": "Feature", "properties": { "code": "214", "name": "Ste Foy Ouest", "lat": 45.740376162882733, "long": 4.7950764813742568 }, "geometry": { "type": "Point", "coordinates": [ 4.795076481374257, 45.740376162882733 ] } },
{ "type": "Feature", "properties": { "code": "215", "name": "Francheville", "lat": 45.738037433658349, "long": 4.7568401292115867 }, "geometry": { "type": "Point", "coordinates": [ 4.756840129211587, 45.738037433658349 ] } },
{ "type": "Feature", "properties": { "code": "216", "name": "Craponne\/ St Genis Les Ollières", "lat": 45.752833489520697, "long": 4.7273162685501759 }, "geometry": { "type": "Point", "coordinates": [ 4.727316268550176, 45.752833489520697 ] } },
{ "type": "Feature", "properties": { "code": "217", "name": "Tassin-la-Demi-Lune", "lat": 45.76304145809209, "long": 4.7555757815744455 }, "geometry": { "type": "Point", "coordinates": [ 4.755575781574445, 45.76304145809209 ] } },
{ "type": "Feature", "properties": { "code": "218", "name": "Ecully", "lat": 45.781960571473178, "long": 4.7732797125587911 }, "geometry": { "type": "Point", "coordinates": [ 4.773279712558791, 45.781960571473178 ] } },
{ "type": "Feature", "properties": { "code": "219", "name": "Charbonnières\/ Marcy", "lat": 45.782834868350399, "long": 4.7263380383339619 }, "geometry": { "type": "Point", "coordinates": [ 4.726338038333962, 45.782834868350399 ] } },
{ "type": "Feature", "properties": { "code": "220", "name": "Dardilly\/ Tr de Salvagny", "lat": 45.811471712118461, "long": 4.7347500969249543 }, "geometry": { "type": "Point", "coordinates": [ 4.734750096924954, 45.811471712118461 ] } },
{ "type": "Feature", "properties": { "code": "221", "name": "Champagne\/Limonest\/Lissieu\/Chasselay", "lat": 45.85105744408002, "long": 4.7681110772462407 }, "geometry": { "type": "Point", "coordinates": [ 4.768111077246241, 45.85105744408002 ] } },
{ "type": "Feature", "properties": { "code": "222", "name": "St Cyr \/ St Didier", "lat": 45.816942482812046, "long": 4.8082104800439343 }, "geometry": { "type": "Point", "coordinates": [ 4.808210480043934, 45.816942482812046 ] } },
{ "type": "Feature", "properties": { "code": "223", "name": "Monts d'Or", "lat": 45.878739647165759, "long": 4.7988738805195394 }, "geometry": { "type": "Point", "coordinates": [ 4.798873880519539, 45.878739647165759 ] } },
{ "type": "Feature", "properties": { "code": "224", "name": "Val de saône Nord", "lat": 45.887165638748037, "long": 4.8500352403493405 }, "geometry": { "type": "Point", "coordinates": [ 4.850035240349341, 45.887165638748037 ] } },
{ "type": "Feature", "properties": { "code": "225", "name": "Val de Saône Est", "lat": 45.849457285632127, "long": 4.8716490553863405 }, "geometry": { "type": "Point", "coordinates": [ 4.871649055386341, 45.849457285632127 ] } },
{ "type": "Feature", "properties": { "code": "226", "name": "Caluire Ouest", "lat": 45.80016313259739, "long": 4.8433341977899316 }, "geometry": { "type": "Point", "coordinates": [ 4.843334197789932, 45.80016313259739 ] } },
{ "type": "Feature", "properties": { "code": "227", "name": "Caluire Est\/St Clair", "lat": 45.795643674988447, "long": 4.8593445968682021 }, "geometry": { "type": "Point", "coordinates": [ 4.859344596868202, 45.795643674988447 ] } },
{ "type": "Feature", "properties": { "code": "228", "name": "Rillieux Village\/Sathonay Camp", "lat": 45.821945014518498, "long": 4.8963254486046361 }, "geometry": { "type": "Point", "coordinates": [ 4.896325448604636, 45.821945014518498 ] } },
{ "type": "Feature", "properties": { "code": "229", "name": "Rillieux Ville nouvelle", "lat": 45.814146667317758, "long": 4.8987791702415748 }, "geometry": { "type": "Point", "coordinates": [ 4.898779170241575, 45.814146667317758 ] } },
{ "type": "Feature", "properties": { "code": "230", "name": "Vaulx Village\/ Grappinières", "lat": 45.794436062460989, "long": 4.9288559354021562 }, "geometry": { "type": "Point", "coordinates": [ 4.928855935402156, 45.794436062460989 ] } },
{ "type": "Feature", "properties": { "code": "231", "name": "Vaulx  Centre", "lat": 45.780952018310444, "long": 4.9183833197869395 }, "geometry": { "type": "Point", "coordinates": [ 4.91838331978694, 45.780952018310444 ] } },
{ "type": "Feature", "properties": { "code": "232", "name": "La soie\/Les Planches", "lat": 45.763871160414716, "long": 4.9246286457964397 }, "geometry": { "type": "Point", "coordinates": [ 4.92462864579644, 45.763871160414716 ] } },
{ "type": "Feature", "properties": { "code": "233", "name": "Décines Centre", "lat": 45.760455216263765, "long": 4.949004913743587 }, "geometry": { "type": "Point", "coordinates": [ 4.949004913743587, 45.760455216263765 ] } },
{ "type": "Feature", "properties": { "code": "234", "name": "Décines Grand Large", "lat": 45.777830629699324, "long": 4.9687237007889875 }, "geometry": { "type": "Point", "coordinates": [ 4.968723700788988, 45.777830629699324 ] } },
{ "type": "Feature", "properties": { "code": "235", "name": "Meyzieu Ouest", "lat": 45.782478878620019, "long": 4.9980437034192517 }, "geometry": { "type": "Point", "coordinates": [ 4.998043703419252, 45.782478878620019 ] } },
{ "type": "Feature", "properties": { "code": "236", "name": "Meyzieu Est", "lat": 45.769337038304393, "long": 5.0202500818382587 }, "geometry": { "type": "Point", "coordinates": [ 5.020250081838259, 45.769337038304393 ] } },
{ "type": "Feature", "properties": { "code": "237", "name": "Jonage", "lat": 45.790952426440832, "long": 5.042062266920488 }, "geometry": { "type": "Point", "coordinates": [ 5.042062266920488, 45.790952426440832 ] } },
{ "type": "Feature", "properties": { "code": "238", "name": "Chassieu", "lat": 45.73817430295648, "long": 4.9628573139610683 }, "geometry": { "type": "Point", "coordinates": [ 4.962857313961068, 45.73817430295648 ] } },
{ "type": "Feature", "properties": { "code": "239", "name": "St-Priest Bel Air", "lat": 45.69272692150038, "long": 4.9525708694904917 }, "geometry": { "type": "Point", "coordinates": [ 4.952570869490492, 45.69272692150038 ] } },
{ "type": "Feature", "properties": { "code": "240", "name": "St-Priest Centre", "lat": 45.692460119495159, "long": 4.9399079504349741 }, "geometry": { "type": "Point", "coordinates": [ 4.939907950434974, 45.692460119495159 ] } },
{ "type": "Feature", "properties": { "code": "241", "name": "St-Priest Village", "lat": 45.702128612862531, "long": 4.9343868021369675 }, "geometry": { "type": "Point", "coordinates": [ 4.934386802136967, 45.702128612862531 ] } },
{ "type": "Feature", "properties": { "code": "242", "name": "St-Priest Mi-plaine-porte des Alpes", "lat": 45.702580223808432, "long": 4.9513057954872677 }, "geometry": { "type": "Point", "coordinates": [ 4.951305795487268, 45.702580223808432 ] } },
{ "type": "Feature", "properties": { "code": "243", "name": "MIONS", "lat": 45.665142728642692, "long": 4.9496116490227546 }, "geometry": { "type": "Point", "coordinates": [ 4.949611649022755, 45.665142728642692 ] } },
{ "type": "Feature", "properties": { "code": "244", "name": "Corbas", "lat": 45.668432363880228, "long": 4.9091224994941571 }, "geometry": { "type": "Point", "coordinates": [ 4.909122499494157, 45.668432363880228 ] } },
{ "type": "Feature", "properties": { "code": "245", "name": "Feyzin\/Solaize", "lat": 45.661716162896766, "long": 4.850111669797907 }, "geometry": { "type": "Point", "coordinates": [ 4.850111669797907, 45.661716162896766 ] } },
{ "type": "Feature", "properties": { "code": "246", "name": "Charly\/Irigny\/Vernaison", "lat": 45.662383639235856, "long": 4.8088285417654495 }, "geometry": { "type": "Point", "coordinates": [ 4.808828541765449, 45.662383639235856 ] } },
{ "type": "Feature", "properties": { "code": "247", "name": "Saint-Genis-Laval", "lat": 45.694343687552028, "long": 4.789926103492391 }, "geometry": { "type": "Point", "coordinates": [ 4.789926103492391, 45.694343687552028 ] } },
{ "type": "Feature", "properties": { "code": "248", "name": "Grigny", "lat": 45.608434035689754, "long": 4.7869302777732878 }, "geometry": { "type": "Point", "coordinates": [ 4.786930277773288, 45.608434035689754 ] } },
{ "type": "Feature", "properties": { "code": "249", "name": "Givors Centre\/Freydieres", "lat": 45.575527270608404, "long": 4.7706829755244557 }, "geometry": { "type": "Point", "coordinates": [ 4.770682975524456, 45.575527270608404 ] } },
{ "type": "Feature", "properties": { "code": "250", "name": "Givors Coteaux", "lat": 45.589480810303904, "long": 4.741686963669701 }, "geometry": { "type": "Point", "coordinates": [ 4.741686963669701, 45.589480810303904 ] } },
{ "type": "Feature", "properties": { "code": "251", "name": "Chaponost", "lat": 45.709032482374369, "long": 4.7460819040001638 }, "geometry": { "type": "Point", "coordinates": [ 4.746081904000164, 45.709032482374369 ] } },
{ "type": "Feature", "properties": { "code": "252", "name": "Vallons du Lyonnais", "lat": 45.712603294817164, "long": 4.6676299351271346 }, "geometry": { "type": "Point", "coordinates": [ 4.667629935127135, 45.712603294817164 ] } },
{ "type": "Feature", "properties": { "code": "253", "name": "Est Lyonnais Nord", "lat": 45.740484048660072, "long": 5.0901999401704838 }, "geometry": { "type": "Point", "coordinates": [ 5.090199940170484, 45.740484048660072 ] } },
{ "type": "Feature", "properties": { "code": "254", "name": "Genas", "lat": 45.729994693287473, "long": 5.0166979570420516 }, "geometry": { "type": "Point", "coordinates": [ 5.016697957042052, 45.729994693287473 ] } },
{ "type": "Feature", "properties": { "code": "255", "name": "Est Lyonnais Sud", "lat": 45.668515336165505, "long": 5.0247535339283065 }, "geometry": { "type": "Point", "coordinates": [ 5.024753533928306, 45.668515336165505 ] } },
{ "type": "Feature", "properties": { "code": "256", "name": "Ozon Est", "lat": 45.627636823934182, "long": 4.9071268219956234 }, "geometry": { "type": "Point", "coordinates": [ 4.907126821995623, 45.627636823934182 ] } },
{ "type": "Feature", "properties": { "code": "257", "name": "Ozon Ouest", "lat": 45.605689325660066, "long": 4.8256149721983768 }, "geometry": { "type": "Point", "coordinates": [ 4.825614972198377, 45.605689325660066 ] } },
{ "type": "Feature", "properties": { "code": "301", "name": "Bourgoin Jaillieu Sud", "lat": 45.590377027746236, "long": 5.266836170347605 }, "geometry": { "type": "Point", "coordinates": [ 5.266836170347605, 45.590377027746236 ] } },
{ "type": "Feature", "properties": { "code": "302", "name": "Bourgoin Jaillieu Nord", "lat": 45.610684692914845, "long": 5.2796256978535752 }, "geometry": { "type": "Point", "coordinates": [ 5.279625697853575, 45.610684692914845 ] } },
{ "type": "Feature", "properties": { "code": "303", "name": "L'Isle d'Abeau", "lat": 45.618335346742391, "long": 5.223537687578272 }, "geometry": { "type": "Point", "coordinates": [ 5.223537687578272, 45.618335346742391 ] } },
{ "type": "Feature", "properties": { "code": "304", "name": "Porte Isère Nord-Ouest", "lat": 45.654795951381516, "long": 5.1208304759567351 }, "geometry": { "type": "Point", "coordinates": [ 5.120830475956735, 45.654795951381516 ] } },
{ "type": "Feature", "properties": { "code": "305", "name": "VILLEFONTAINE", "lat": 45.616929168588953, "long": 5.150969841158207 }, "geometry": { "type": "Point", "coordinates": [ 5.150969841158207, 45.616929168588953 ] } },
{ "type": "Feature", "properties": { "code": "306", "name": "Vaulx-Millieu \/ Four", "lat": 45.594073672879624, "long": 5.1901330543687276 }, "geometry": { "type": "Point", "coordinates": [ 5.190133054368728, 45.594073672879624 ] } },
{ "type": "Feature", "properties": { "code": "307", "name": "Porte Isère Sud", "lat": 45.565766229168339, "long": 5.2524821652676925 }, "geometry": { "type": "Point", "coordinates": [ 5.252482165267693, 45.565766229168339 ] } },
{ "type": "Feature", "properties": { "code": "308", "name": "Porte Isère Est", "lat": 45.564078037114918, "long": 5.3256039420586037 }, "geometry": { "type": "Point", "coordinates": [ 5.325603942058604, 45.564078037114918 ] } },
{ "type": "Feature", "properties": { "code": "401", "name": "Vienne Jean Moulin", "lat": 45.511903205117243, "long": 4.8610553053672714 }, "geometry": { "type": "Point", "coordinates": [ 4.861055305367271, 45.511903205117243 ] } },
{ "type": "Feature", "properties": { "code": "402", "name": "Vienne Collines\/ Malissol", "lat": 45.513113963028097, "long": 4.8877259182610349 }, "geometry": { "type": "Point", "coordinates": [ 4.887725918261035, 45.513113963028097 ] } },
{ "type": "Feature", "properties": { "code": "403", "name": "Vienne pasteur\/Estressin", "lat": 45.543095908992576, "long": 4.874188947849718 }, "geometry": { "type": "Point", "coordinates": [ 4.874188947849718, 45.543095908992576 ] } },
{ "type": "Feature", "properties": { "code": "404", "name": "Pays Viennois Nord", "lat": 45.569650176501156, "long": 4.8876993287052963 }, "geometry": { "type": "Point", "coordinates": [ 4.887699328705296, 45.569650176501156 ] } },
{ "type": "Feature", "properties": { "code": "405", "name": "Pays Viennois Est", "lat": 45.527125914569055, "long": 4.9795839938893618 }, "geometry": { "type": "Point", "coordinates": [ 4.979583993889362, 45.527125914569055 ] } },
{ "type": "Feature", "properties": { "code": "406", "name": "Pays Viennois Sud", "lat": 45.473005105738523, "long": 4.9117504887039178 }, "geometry": { "type": "Point", "coordinates": [ 4.911750488703918, 45.473005105738523 ] } },
{ "type": "Feature", "properties": { "code": "501", "name": "Villefranche\/S Sect. Ouest", "lat": 45.989822529617015, "long": 4.7141137126127424 }, "geometry": { "type": "Point", "coordinates": [ 4.714113712612742, 45.989822529617015 ] } },
{ "type": "Feature", "properties": { "code": "502", "name": "Villefranche\/S Sect.Est", "lat": 45.986118470491043, "long": 4.7390439548444361 }, "geometry": { "type": "Point", "coordinates": [ 4.739043954844436, 45.986118470491043 ] } },
{ "type": "Feature", "properties": { "code": "503", "name": "Villefranche couronne", "lat": 45.999174926468129, "long": 4.7127526983425883 }, "geometry": { "type": "Point", "coordinates": [ 4.712752698342588, 45.999174926468129 ] } },
{ "type": "Feature", "properties": { "code": "504", "name": "CA Villefranche Beaujolais sect Est", "lat": 46.02841569127829, "long": 4.629358381680456 }, "geometry": { "type": "Point", "coordinates": [ 4.629358381680456, 46.02841569127829 ] } },
{ "type": "Feature", "properties": { "code": "505", "name": "Saône-Beaujolais Est", "lat": 46.120563950476736, "long": 4.7111365768299382 }, "geometry": { "type": "Point", "coordinates": [ 4.711136576829938, 46.120563950476736 ] } },
{ "type": "Feature", "properties": { "code": "506", "name": "Saône Beaujolais Ouest", "lat": 46.171722676121284, "long": 4.6158391435938464 }, "geometry": { "type": "Point", "coordinates": [ 4.615839143593846, 46.171722676121284 ] } },
{ "type": "Feature", "properties": { "code": "507", "name": "Haut Beaujolais\/ Ouest Rhôdanien (sect Est)", "lat": 46.175558759724218, "long": 4.4998257957487562 }, "geometry": { "type": "Point", "coordinates": [ 4.499825795748756, 46.175558759724218 ] } },
{ "type": "Feature", "properties": { "code": "508", "name": "Ouest Rhôdanien", "lat": 46.034587645610991, "long": 4.3627045136453093 }, "geometry": { "type": "Point", "coordinates": [ 4.362704513645309, 46.034587645610991 ] } },
{ "type": "Feature", "properties": { "code": "509", "name": "Tarare", "lat": 45.903664341569936, "long": 4.4244134795076757 }, "geometry": { "type": "Point", "coordinates": [ 4.424413479507676, 45.903664341569936 ] } },
{ "type": "Feature", "properties": { "code": "510", "name": "Tarare-Périphérie", "lat": 45.89263863232096, "long": 4.4462369708813378 }, "geometry": { "type": "Point", "coordinates": [ 4.446236970881338, 45.89263863232096 ] } },
{ "type": "Feature", "properties": { "code": "511", "name": "Beaujjolais", "lat": 45.935165363560337, "long": 4.5658869180898867 }, "geometry": { "type": "Point", "coordinates": [ 4.565886918089887, 45.935165363560337 ] } },
{ "type": "Feature", "properties": { "code": "512", "name": "Pierres Dorées Nord", "lat": 45.943881772084893, "long": 4.6993487434807815 }, "geometry": { "type": "Point", "coordinates": [ 4.699348743480781, 45.943881772084893 ] } },
{ "type": "Feature", "properties": { "code": "513", "name": "Pierres Dorées  Sud \/Azergues", "lat": 45.886147370965105, "long": 4.6980786589261809 }, "geometry": { "type": "Point", "coordinates": [ 4.698078658926181, 45.886147370965105 ] } },
{ "type": "Feature", "properties": { "code": "514", "name": "Pays de l'Arbresle Nord- Est", "lat": 45.824172577165854, "long": 4.6604139785032617 }, "geometry": { "type": "Point", "coordinates": [ 4.660413978503262, 45.824172577165854 ] } },
{ "type": "Feature", "properties": { "code": "515", "name": "Pays de l'Arbresle  Ouest", "lat": 45.801368294344535, "long": 4.5720436904426043 }, "geometry": { "type": "Point", "coordinates": [ 4.572043690442604, 45.801368294344535 ] } },
{ "type": "Feature", "properties": { "code": "516", "name": "Vallons du Lyonnais", "lat": 45.737845710316442, "long": 4.63895869308746 }, "geometry": { "type": "Point", "coordinates": [ 4.63895869308746, 45.737845710316442 ] } },
{ "type": "Feature", "properties": { "code": "517", "name": "Chamousset en Lyonnais", "lat": 45.755737356250329, "long": 4.4487486696916134 }, "geometry": { "type": "Point", "coordinates": [ 4.448748669691613, 45.755737356250329 ] } },
{ "type": "Feature", "properties": { "code": "518", "name": "Hauts du Lyonnais", "lat": 45.649234645714124, "long": 4.494957498395836 }, "geometry": { "type": "Point", "coordinates": [ 4.494957498395836, 45.649234645714124 ] } },
{ "type": "Feature", "properties": { "code": "519", "name": "Mornantais Est", "lat": 45.607682899965049, "long": 4.6340648367425104 }, "geometry": { "type": "Point", "coordinates": [ 4.63406483674251, 45.607682899965049 ] } },
{ "type": "Feature", "properties": { "code": "520", "name": "Mornantais Ouest", "lat": 45.648080583917555, "long": 4.7082733869867379 }, "geometry": { "type": "Point", "coordinates": [ 4.708273386986738, 45.648080583917555 ] } },
{ "type": "Feature", "properties": { "code": "521", "name": "Vallée du Garon", "lat": 45.648910309106014, "long": 4.762578945002085 }, "geometry": { "type": "Point", "coordinates": [ 4.762578945002085, 45.648910309106014 ] } },
{ "type": "Feature", "properties": { "code": "522", "name": "Région de Condrieu", "lat": 45.519453596868736, "long": 4.7447213520127525 }, "geometry": { "type": "Point", "coordinates": [ 4.744721352012752, 45.519453596868736 ] } },
{ "type": "Feature", "properties": { "code": "601", "name": "Porte Dauphinoise de Lyon Satolas Nord", "lat": 45.774903258980437, "long": 5.1287750913417849 }, "geometry": { "type": "Point", "coordinates": [ 5.128775091341785, 45.774903258980437 ] } },
{ "type": "Feature", "properties": { "code": "602", "name": "Porte Dauphinoise de Lyon Satolas Sud", "lat": 45.738253294239371, "long": 5.1714960402847927 }, "geometry": { "type": "Point", "coordinates": [ 5.171496040284793, 45.738253294239371 ] } },
{ "type": "Feature", "properties": { "code": "603", "name": "Isle Crémieu Nord", "lat": 45.770898152148007, "long": 5.3097165973195173 }, "geometry": { "type": "Point", "coordinates": [ 5.309716597319517, 45.770898152148007 ] } },
{ "type": "Feature", "properties": { "code": "604", "name": "Pays des Couleurs Sect. Nord", "lat": 45.762464905809821, "long": 5.4267246757880736 }, "geometry": { "type": "Point", "coordinates": [ 5.426724675788074, 45.762464905809821 ] } },
{ "type": "Feature", "properties": { "code": "605", "name": "Isle Crémieu Sud", "lat": 45.69193530449499, "long": 5.220668343213962 }, "geometry": { "type": "Point", "coordinates": [ 5.220668343213962, 45.69193530449499 ] } },
{ "type": "Feature", "properties": { "code": "606", "name": "Balmes Dauphinoises", "lat": 45.653777393197821, "long": 5.3306124367665593 }, "geometry": { "type": "Point", "coordinates": [ 5.330612436766559, 45.653777393197821 ] } },
{ "type": "Feature", "properties": { "code": "607", "name": "Pays des Couleurs Sud", "lat": 45.651265662425416, "long": 5.4981904174908536 }, "geometry": { "type": "Point", "coordinates": [ 5.498190417490854, 45.651265662425416 ] } },
{ "type": "Feature", "properties": { "code": "608", "name": "Vallons de la Tour Ouest", "lat": 45.578176663073236, "long": 5.4096663526849404 }, "geometry": { "type": "Point", "coordinates": [ 5.40966635268494, 45.578176663073236 ] } },
{ "type": "Feature", "properties": { "code": "609", "name": "Vallons de la Tour Est", "lat": 45.576130018245202, "long": 5.4917630434438767 }, "geometry": { "type": "Point", "coordinates": [ 5.491763043443877, 45.576130018245202 ] } },
{ "type": "Feature", "properties": { "code": "610", "name": "Vallons du Guiers\/  Chaîne des Tisserands", "lat": 45.548416426969588, "long": 5.6078205882343442 }, "geometry": { "type": "Point", "coordinates": [ 5.607820588234344, 45.548416426969588 ] } },
{ "type": "Feature", "properties": { "code": "611", "name": "Vallée de l'Hien\/Virieu-Vallée de la Bourbre", "lat": 45.503723359188172, "long": 5.4328405779386308 }, "geometry": { "type": "Point", "coordinates": [ 5.432840577938631, 45.503723359188172 ] } },
{ "type": "Feature", "properties": { "code": "612", "name": "Région Saint Jeannaise", "lat": 45.494782829611346, "long": 5.1607998417304435 }, "geometry": { "type": "Point", "coordinates": [ 5.160799841730443, 45.494782829611346 ] } },
{ "type": "Feature", "properties": { "code": "613", "name": "Collines du Nord Dauphiné", "lat": 45.584411519254431, "long": 5.0792615087570088 }, "geometry": { "type": "Point", "coordinates": [ 5.079261508757009, 45.584411519254431 ] } },
{ "type": "Feature", "properties": { "code": "614", "name": "Roussillonnais Nord", "lat": 45.429585600793899, "long": 4.8229602322797378 }, "geometry": { "type": "Point", "coordinates": [ 4.822960232279738, 45.429585600793899 ] } },
{ "type": "Feature", "properties": { "code": "615", "name": "Roussillonnais Centre", "lat": 45.384299774119029, "long": 4.7928802906080934 }, "geometry": { "type": "Point", "coordinates": [ 4.792880290608093, 45.384299774119029 ] } },
{ "type": "Feature", "properties": { "code": "616", "name": "Roussillonnais Péage Est,Roussillon Centre et Ouest", "lat": 45.372118985241038, "long": 4.8000228108108631 }, "geometry": { "type": "Point", "coordinates": [ 4.800022810810863, 45.372118985241038 ] } },
{ "type": "Feature", "properties": { "code": "617", "name": "Roussillonnais Sud Ouest  Sect. de Chanas", "lat": 45.330079116780169, "long": 4.809606423182478 }, "geometry": { "type": "Point", "coordinates": [ 4.809606423182478, 45.330079116780169 ] } },
{ "type": "Feature", "properties": { "code": "618", "name": "Roussillonnais Est", "lat": 45.365817153702075, "long": 4.8869033051062445 }, "geometry": { "type": "Point", "coordinates": [ 4.886903305106244, 45.365817153702075 ] } },
{ "type": "Feature", "properties": { "code": "701", "name": "Trois Rivières", "lat": 46.069165267059148, "long": 4.7945128422668306 }, "geometry": { "type": "Point", "coordinates": [ 4.794512842266831, 46.069165267059148 ] } },
{ "type": "Feature", "properties": { "code": "702", "name": "Porte Ouest de la Dombes", "lat": 46.005779523253011, "long": 4.8483331173259314 }, "geometry": { "type": "Point", "coordinates": [ 4.848333117325931, 46.005779523253011 ] } },
{ "type": "Feature", "properties": { "code": "703", "name": "Saône Vallée", "lat": 45.944127408614129, "long": 4.8412160494337799 }, "geometry": { "type": "Point", "coordinates": [ 4.84121604943378, 45.944127408614129 ] } },
{ "type": "Feature", "properties": { "code": "704", "name": "Centre Dombes", "lat": 45.967576712469487, "long": 4.9844461843699488 }, "geometry": { "type": "Point", "coordinates": [ 4.984446184369949, 45.967576712469487 ] } },
{ "type": "Feature", "properties": { "code": "705", "name": "Miribel\/ Neyron", "lat": 45.840134106994427, "long": 4.9396860517093577 }, "geometry": { "type": "Point", "coordinates": [ 4.939686051709358, 45.840134106994427 ] } },
{ "type": "Feature", "properties": { "code": "706", "name": "Plateau", "lat": 45.847676656108582, "long": 4.9849084357858899 }, "geometry": { "type": "Point", "coordinates": [ 4.98490843578589, 45.847676656108582 ] } },
{ "type": "Feature", "properties": { "code": "707", "name": "Région de Montluel", "lat": 45.867525061471575, "long": 5.0649896192055577 }, "geometry": { "type": "Point", "coordinates": [ 5.064989619205558, 45.867525061471575 ] } },
{ "type": "Feature", "properties": { "code": "708", "name": "Plaine de l'Ain  Ouest", "lat": 45.921005698102377, "long": 5.154425688494813 }, "geometry": { "type": "Point", "coordinates": [ 5.154425688494813, 45.921005698102377 ] } },
{ "type": "Feature", "properties": { "code": "709", "name": "Centre Dombes secetur Nord Est\/ Chalamont", "lat": 46.031101649624929, "long": 5.1427563171990887 }, "geometry": { "type": "Point", "coordinates": [ 5.142756317199089, 46.031101649624929 ] } },
{ "type": "Feature", "properties": { "code": "710", "name": "Plaine de l'Ain  Sect. Sud Ouest", "lat": 45.848797136235767, "long": 5.237685351920855 }, "geometry": { "type": "Point", "coordinates": [ 5.237685351920855, 45.848797136235767 ] } },
{ "type": "Feature", "properties": { "code": "711", "name": "Couronne Ambérieu", "lat": 45.935170267838373, "long": 5.3629648317108334 }, "geometry": { "type": "Point", "coordinates": [ 5.362964831710833, 45.935170267838373 ] } },
{ "type": "Feature", "properties": { "code": "712", "name": "AMBERIEU-EN-BUGEY", "lat": 45.961064198048319, "long": 5.3728924585209414 }, "geometry": { "type": "Point", "coordinates": [ 5.372892458520941, 45.961064198048319 ] } }
]
}
